id	type	DescriptionTitle	PriceLabel	ListingDate	ReListingDate	Address	Suburb	State	PostCode	Property.lat	Property.lon	PropertyType	Agency.Id	Agency.Type	Agency.Name	Agent.Name	Beds	Baths	Cars	EER	PlotSize	Features
169283470	SALES_RESIDENTIAL	Location Location Location!!	$420,000	2014-10-12 13:00:00	2019-08-01 23:37:29	35/28 Mort Street	Braddon	ACT	2612	-35.2745934	149.1317121	UNIT	5402	Agent	Independent Inner North & City	Graham Bush	1	1	1	6	0	['Wash Closet']
169369944	SALES_RESIDENTIAL	185/41 Chandler Street 'Altitude' Belconnen	$389,000	2014-11-05 22:02:08		185/41 Chandler Street	Belconnen	ACT	2617	-35.23924776	149.07055725	APARTMENT	178686	PrivateLister	Private Lister		1	1	1		7709	['Air Conditioning', 'Allocated Car Space', 'Reverse Cycle Heating']
169088935	SALES_RESIDENTIAL	contract price on your land	$370,000	2014-06-13 05:15:48		(no street name provided)	Wright	ACT	2611	-35.3227948	149.0336479	HOUSE_AND_LAND_PACKAGE	599	Agent	GoldRuby Homes	Matthew Smith	5	2	2	6	540	[]
169072096	SALES_RESIDENTIAL	Build a quality luxury home with excellent inclusions	$507,000+	2014-06-02 07:13:00		(no street name provided)	Coombs	ACT	2611	-35.3147808	149.0421802	OTHER	247235	Builder	SOTA Custom Homes	Saffran Heidari	4	2	2	6		['Alarm', 'Ducted Vacuum', 'Electric Garage Doors', 'Lounge Room', 'New Construction', 'Powder Room', 'Reverse Cycle a/c', 'Rumpus Room', 'Slab Construction', 'Walk In Pantry', 'Walk In Robe']
173977774	SALES_RESIDENTIAL	Best value - DRIVE PAST TODAY 16 Thwaites Crescent WRIGHT	$820,000+	2014-02-17 00:48:00		(no street name provided)	Wright	ACT	2611	-35.3213637	149.0336551	HOUSE	570129	Agent	Trusted Realtors	Serene Teoh	5	2	2	6	379	[]
